{"version": 0.6, "generator": "Overpass API 0.7.62.8 e802775f", "osm3s": {"timestamp_osm_base": "2025-12-07T21:19:00Z", "copyright": "The data included in this document is from www.openstreetmap.org. The data is made available under ODbL."}, "elements": [{"type": "node", "id": 4420548369, "lat": 25.4236469, "lon": 86.3064601}, {"type": "node", "id": 4420548370, "lat": 25.4233784, "lon": 86.3078242}, {"type": "node", "id": 4420548371, "lat": 25.4232757, "lon": 86.3078067}, {"type": "node", "id": 4420548372, "lat": 25.4229203, "lon": 86.3092612}, {"type": "node", "id": 4420548373, "lat": 25.4228387, "lon": 86.3096664}, {"type": "node", "id": 4420548374, "lat": 25.4211933, "lon": 86.3093866}, {"type": "node", "id": 4420548375, "lat": 25.4213855, "lon": 86.3083984}, {"type": "node", "id": 4420548376, "lat": 25.4215382, "lon": 86.3076172}, {"type": "node", "id": 4420548377, "lat": 25.4217567, "lon": 86.3070751}, {"type": "node", "id": 4420548378, "lat": 25.4220963, "lon": 86.3059674}, {"type": "node", "id": 4420548379, "lat": 25.4227176, "lon": 86.3061598}, {"type": "node", "id": 6950284170, "lat": 25.420822, "lon": 86.3085759, "tags": {"addr:district": "Begusarai", "addr:full": "Patel Chowk, Ballialakhminia-III", "addr:postcode": "851101", "addr:state": "Bihar", "amenity": "clinic", "name": "Uma Nursing Home, Begusarai", "source": "OpenGovernmentData"}}, {"type": "node", "id": 6956602537, "lat": 25.3729295, "lon": 86.4695021, "tags": {"addr:district": "Munger", "addr:full": "Belan Bazar NearVaidnath Takies", "addr:postcode": "811201", "addr:state": "Bihar", "amenity": "hospital", "name": "Surims and Hospital", "source": "OpenGovernmentData"}}, {"type": "node", "id": 6965306516, "lat": 25.3788317, "lon": 86.4860849}, {"type": "node", "id": 6965306517, "lat": 25.3788305, "lon": 86.4861198}, {"type": "node", "id": 6965306518, "lat": 25.3788705, "lon": 86.4861238}, {"type": "node", "id": 6965306519, "lat": 25.3788705, "lon": 86.4861037}, {"type": "node", "id": 6965306520, "lat": 25.3789177, "lon": 86.4861023}, {"type": "node", "id": 6965306521, "lat": 25.3789153, "lon": 86.4861332}, {"type": "node", "id": 6965306522, "lat": 25.3789747, "lon": 86.4861962}, {"type": "node", "id": 6965306523, "lat": 25.378965, "lon": 86.4863169}, {"type": "node", "id": 6965306524, "lat": 25.3786427, "lon": 86.4862888}, {"type": "node", "id": 6965306525, "lat": 25.3786475, "lon": 86.4861976}, {"type": "node", "id": 6965306526, "lat": 25.3786257, "lon": 86.4861949}, {"type": "node", "id": 6965306527, "lat": 25.378633, "lon": 86.4861238}, {"type": "node", "id": 6965306528, "lat": 25.3786075, "lon": 86.4861171}, {"type": "node", "id": 6965306529, "lat": 25.3786051, "lon": 86.4860903}, {"type": "node", "id": 6965306530, "lat": 25.3786281, "lon": 86.4860661}, {"type": "node", "id": 6965357498, "lat": 25.3796202, "lon": 86.4764128, "tags": {"addr:district": "Munger", "addr:full": "Dr. B. G. Bose Lane , Seva Colony, NearNeelam Cinema Road", "addr:postcode": "811201", "addr:state": "Bihar", "amenity": "hospital", "name": "Sevayan Medical And Research Centre - Munger", "source": "OpenGovernmentData"}}, {"type": "node", "id": 6967181946, "lat": 25.5053494, "lon": 86.4683501, "tags": {"addr:district": "Khagaria", "addr:full": "Station Road", "addr:postcode": "811201", "addr:state": "Bihar", "amenity": "hospital", "name": "Urmila Nursing Home, Khagaria", "source": "OpenGovernmentData"}}, {"type": "node", "id": 7130691875, "lat": 25.50877, "lon": 86.4756484, "tags": {"addr:district": "Khagaria", "addr:full": "Hospital Road", "addr:postcode": "851204", "addr:state": "Bihar", "addr:subdistrict": "Khagaria", "amenity": "hospital", "description": "District Hospital", "name": "Sadar District Hospital,Khagaria", "source": "OpenGovernmentData"}}, {"type": "node", "id": 7809623068, "lat": 25.3816549, "lon": 86.4712543, "tags": {"addr:district": "Araria", "addr:full": "Shankarpur, Munger", "addr:postcode": "811201", "addr:state": "Bihar", "amenity": "hospital", "name": "Government Hospital, Shankarpur", "source": "Local Knowledge"}}, {"type": "way", "id": 444589402, "nodes": [4420548369, 4420548370, 4420548371, 4420548372, 4420548373, 4420548374, 4420548375, 4420548376, 4420548377, 4420548378, 4420548379, 4420548369], "tags": {"amenity": "hospital", "healthcare": "hospital", "name": "Government Hospital Ballia"}}, {"type": "way", "id": 744224979, "nodes": [6965306530, 6965306529, 6965306528, 6965306527, 6965306526, 6965306525, 6965306524, 6965306523, 6965306522, 6965306521, 6965306520, 6965306519, 6965306518, 6965306517, 6965306516, 6965306530], "tags": {"addr:district": "Munger", "addr:full": "Madhopur, Mahila Collage Road", "addr:postcode": "811201", "addr:state": "Bihar", "amenity": "hospital", "building": "yes", "name": "Samarpan Hospital And Research Centre, Munger", "source": "OpenGovernmentData"}}]}