{"version": 0.6, "generator": "Overpass API 0.7.62.8 e802775f", "osm3s": {"timestamp_osm_base": "2025-12-07T20:57:30Z", "copyright": "The data included in this document is from www.openstreetmap.org. The data is made available under ODbL."}, "elements": [{"type": "node", "id": 1762947752, "lat": 28.6280297, "lon": 77.2235286}, {"type": "node", "id": 1762947783, "lat": 28.6279782, "lon": 77.2228881}, {"type": "node", "id": 1762947804, "lat": 28.6278051, "lon": 77.2229801}, {"type": "node", "id": 2106104833, "lat": 28.6350182, "lon": 77.219418, "tags": {"amenity": "fast_food", "diet:vegan": "yes", "diet:vegetarian": "yes", "name": "Nizam's Kathi Kabab", "name:en": "Nizam's Kathi Kabab"}}, {"type": "node", "id": 2327524039, "lat": 28.6331146, "lon": 77.2179776, "tags": {"addr:housename": "A", "alt_name": "Kentucky Fried Chicken", "alt_name:en": "Kentucky Fried Chicken", "alt_name:hi": "\u0915\u0947\u0902\u091f\u0941\u0915\u0940 \u092b\u094d\u0930\u093e\u0907\u0921 \u091a\u093f\u0915\u0928", "alt_name:pa": "\u0a15\u0a48\u0a02\u0a1f\u0a41\u0a15\u0a40 \u0a2b\u0a4d\u0a30\u0a3e\u0a08\u0a21 \u0a1a\u0a3f\u0a15\u0a28", "alt_name:pnb": "\u06a9\u06cc\u0646\u0679\u06a9\u06cc \u0641\u0631\u0627\u0626\u06cc\u0688 \u0686\u06a9\u0646", "alt_name:ur": "\u06a9\u06cc\u0646\u0679\u06a9\u06cc \u0641\u0631\u0627\u0626\u06cc\u0688 \u0686\u06a9\u0646", "amenity": "fast_food", "brand": "KFC", "brand:en": "KFC", "brand:hi": "\u0915\u0947\u090f\u092b\u0938\u0940", "brand:pa": "\u0a15\u0a47\u0a10\u0a2b\u0a38\u0a40", "brand:pnb": "\u06a9\u06d2 \u0627\u06cc\u0641 \u0633\u06cc", "brand:ur": "\u06a9\u06d2 \u0627\u06cc\u0641 \u0633\u06cc", "brand:wikidata": "Q524757", "brand:wikipedia": "en:KFC", "brand:wikipedia:pa": "\u0a15\u0a47\u0a10\u0a2b\u0a38\u0a40", "brand:wikipedia:ur": "\u06a9\u06cc\u0646\u0679\u06a9\u06cc \u0641\u0631\u0627\u0626\u06cc\u0688 \u0686\u06a9\u0646", "cuisine": "chicken", "diet:vegan": "yes", "diet:vegetarian": "yes", "name": "KFC", "name:en": "KFC", "name:hi": "\u0915\u0947\u090f\u092b\u0938\u0940", "name:pa": "\u0a15\u0a47\u0a10\u0a2b\u0a38\u0a40", "name:pnb": "\u06a9\u06d2 \u0627\u06cc\u0641 \u0633\u06cc", "name:ur": "\u06a9\u06d2 \u0627\u06cc\u0641 \u0633\u06cc", "opening_hours": "Mo-Su 11:00-23:00", "takeaway": "yes"}}, {"type": "node", "id": 3269441162, "lat": 28.6405917, "lon": 77.2108939, "tags": {"amenity": "fast_food", "brand": "Subway", "brand:pa": "\u0a38\u0a2c\u0a35\u0a47\u0a05", "brand:ur": "\u0633\u0628 \u0648\u06d2", "brand:wikidata": "Q244457", "brand:wikipedia": "en:Subway (restaurant)", "cuisine": "sandwich", "diet:vegetarian": "yes", "name": "Subway", "name:pa": "\u0a38\u0a2c\u0a35\u0a47\u0a05", "name:ur": "\u0633\u0628 \u0648\u06d2", "takeaway": "yes"}}, {"type": "node", "id": 3579753848, "lat": 28.6265271, "lon": 77.219857}, {"type": "node", "id": 3579753850, "lat": 28.6265438, "lon": 77.2196075}, {"type": "node", "id": 3579753853, "lat": 28.6266043, "lon": 77.2198779}, {"type": "node", "id": 3579753854, "lat": 28.6266213, "lon": 77.2196012}, {"type": "node", "id": 3585193028, "lat": 28.6282028, "lon": 77.2234366}, {"type": "node", "id": 3862442973, "lat": 28.6301576, "lon": 77.2197258, "tags": {"addr:city": "New Delhi", "amenity": "fast_food", "brand": "Domino's", "brand:ks": "\u0688\u0648\u0645\u06cc\u0646\u0648\u0632", "brand:pa": "\u0a21\u0a4b\u0a2e\u0a40\u0a28\u0a4b\u0a1c\u0a3c", "brand:ur": "\u0688\u0648\u0645\u06cc\u0646\u0648\u0632", "brand:wikidata": "Q839466", "brand:wikipedia": "en:Domino's Pizza", "cuisine": "pizza", "diet:vegetarian": "yes", "indoor_seating": "yes", "level": "0", "name": "Domino's", "name:ks": "\u0688\u0648\u0645\u06cc\u0646\u0648\u0632", "name:pa": "\u0a21\u0a4b\u0a2e\u0a40\u0a28\u0a4b\u0a1c\u0a3c", "name:ur": "\u0688\u0648\u0645\u06cc\u0646\u0648\u0632", "takeaway": "yes"}}, {"type": "node", "id": 3991743215, "lat": 28.6336816, "lon": 77.2210924, "tags": {"amenity": "fast_food", "diet:vegan": "yes", "diet:vegetarian": "yes", "name": "The Embassy", "note": "good panir"}}, {"type": "node", "id": 4076669376, "lat": 28.6467705, "lon": 77.2129317, "tags": {"amenity": "fast_food", "name": "Jai Maha Kali"}}, {"type": "node", "id": 4122564390, "lat": 28.6322738, "lon": 77.2162739, "tags": {"addr:city": "New Delhi", "amenity": "fast_food", "brand": "McDonald's", "brand:pa": "\u0a2e\u0a48\u0a15\u0a21\u0a4b\u0a28\u0a32\u0a21\u2019\u0a1c\u0a3c", "brand:ur": "\u0645\u06a9\u0688\u0648\u0646\u0644\u0688\u0632", "brand:wikidata": "Q38076", "brand:wikipedia": "en:McDonald's", "brand:wikipedia:pa": "\u0a2e\u0a48\u0a15\u0a21\u0a4b\u0a28\u0a32\u0a21\u2019\u0a1c\u0a3c", "brand:wikipedia:ur": "\u0645\u06a9\u0688\u0648\u0646\u0644\u0688\u0632", "cuisine": "burger", "name": "McDonald's", "name:pa": "\u0a2e\u0a48\u0a15\u0a21\u0a4b\u0a28\u0a32\u0a21\u2019\u0a1c\u0a3c", "name:ur": "\u0645\u06a9\u0688\u0648\u0646\u0644\u0688\u0632", "takeaway": "yes"}}, {"type": "node", "id": 4241264489, "lat": 28.630206, "lon": 77.2200866, "tags": {"addr:block": "G", "addr:city": "New Delhi", "addr:housenumber": "14", "addr:place": "Connaught Place", "addr:postcode": "110001", "air_conditioning": "yes", "amenity": "fast_food", "brand": "McDonald's", "brand:pa": "\u0a2e\u0a48\u0a15\u0a21\u0a4b\u0a28\u0a32\u0a21\u2019\u0a1c\u0a3c", "brand:ur": "\u0645\u06a9\u0688\u0648\u0646\u0644\u0688\u0632", "brand:wikidata": "Q38076", "brand:wikipedia": "en:McDonald's", "brand:wikipedia:pa": "\u0a2e\u0a48\u0a15\u0a21\u0a4b\u0a28\u0a32\u0a21\u2019\u0a1c\u0a3c", "brand:wikipedia:ur": "\u0645\u06a9\u0688\u0648\u0646\u0644\u0688\u0632", "cuisine": "burger", "diet:vegetarian": "yes", "name": "McDonald's", "name:pa": "\u0a2e\u0a48\u0a15\u0a21\u0a4b\u0a28\u0a32\u0a21\u2019\u0a1c\u0a3c", "name:ur": "\u0645\u06a9\u0688\u0648\u0646\u0644\u0688\u0632", "takeaway": "yes"}}, {"type": "node", "id": 4389312993, "lat": 28.6322011, "lon": 77.2162907, "tags": {"addr:block": "P", "addr:city": "New Delhi", "addr:housenumber": "13/90", "addr:postcode": "110001", "amenity": "fast_food", "brand": "Saravanaa Bhavan;Saravana Bhavan", "brand:wikidata": "Q3528082", "contact:phone": "+91-11-2334-7755;+91-11-2334-5577", "cuisine": "indian;south_indian", "indoor_seating": "yes", "name": "Saravanaa Bhavan", "name:en": "Saravanaa Bhavan", "name:hi": "\u0938\u0930\u094d\u0935\u0923 \u092d\u0935\u0928", "official_name": "Hotel Saravana Bhavan", "takeaway": "yes", "website": "https://saravanabhavan.com/"}}, {"type": "node", "id": 4411278975, "lat": 28.6165099, "lon": 77.2326851, "tags": {"amenity": "fast_food"}}, {"type": "node", "id": 4502144089, "lat": 28.6297305, "lon": 77.2201372, "tags": {"alt_name": "Kentucky Fried Chicken", "alt_name:en": "Kentucky Fried Chicken", "alt_name:hi": "\u0915\u0947\u0902\u091f\u0941\u0915\u0940 \u092b\u094d\u0930\u093e\u0907\u0921 \u091a\u093f\u0915\u0928", "alt_name:pa": "\u0a15\u0a48\u0a02\u0a1f\u0a41\u0a15\u0a40 \u0a2b\u0a4d\u0a30\u0a3e\u0a08\u0a21 \u0a1a\u0a3f\u0a15\u0a28", "alt_name:pnb": "\u06a9\u06cc\u0646\u0679\u06a9\u06cc \u0641\u0631\u0627\u0626\u06cc\u0688 \u0686\u06a9\u0646", "alt_name:ur": "\u06a9\u06cc\u0646\u0679\u06a9\u06cc \u0641\u0631\u0627\u0626\u06cc\u0688 \u0686\u06a9\u0646", "amenity": "fast_food", "brand": "KFC", "brand:en": "KFC", "brand:hi": "\u0915\u0947\u090f\u092b\u0938\u0940", "brand:pa": "\u0a15\u0a47\u0a10\u0a2b\u0a38\u0a40", "brand:pnb": "\u06a9\u06d2 \u0627\u06cc\u0641 \u0633\u06cc", "brand:ur": "\u06a9\u06d2 \u0627\u06cc\u0641 \u0633\u06cc", "brand:wikidata": "Q524757", "brand:wikipedia": "en:KFC", "brand:wikipedia:pa": "\u0a15\u0a47\u0a10\u0a2b\u0a38\u0a40", "brand:wikipedia:ur": "\u06a9\u06cc\u0646\u0679\u06a9\u06cc \u0641\u0631\u0627\u0626\u06cc\u0688 \u0686\u06a9\u0646", "cuisine": "chicken", "name": "KFC", "name:en": "KFC", "name:hi": "\u0915\u0947\u090f\u092b\u0938\u0940", "name:pa": "\u0a15\u0a47\u0a10\u0a2b\u0a38\u0a40", "name:pnb": "\u06a9\u06d2 \u0627\u06cc\u0641 \u0633\u06cc", "name:ur": "\u06a9\u06d2 \u0627\u06cc\u0641 \u0633\u06cc", "takeaway": "yes"}}, {"type": "node", "id": 4875489421, "lat": 28.6317854, "lon": 77.2159495, "tags": {"addr:city": "New Delhi", "amenity": "fast_food", "diet:lacto_vegetarian": "yes", "level": "0", "name": "Jain Chawal Wale", "opening_hours": "Mo-Su 09:00-01:00"}}, {"type": "node", "id": 4959734121, "lat": 28.6270891, "lon": 77.2197178, "tags": {"addr:housenumber": "50", "addr:postcode": "110001", "addr:street": "Janpath", "amenity": "fast_food", "brand": "Saravana Bhavan", "brand:wikidata": "Q3528082", "contact:phone": "+91 11 2331 7755;+91 11 2331 6060", "cuisine": "indian;south_indian", "diet:lacto_vegetarian": "yes", "diet:vegan": "yes", "name": "Saravana Bhavan", "name:en": "Saravana Bhavan", "name:hi": "\u0938\u0930\u0935\u0923 \u092d\u0935\u0928", "official_name": "Hotel Saravana Bhavan", "opening_hours": "Mo-Su 08:00-23:00", "takeaway": "yes"}}, {"type": "node", "id": 5017924724, "lat": 28.63412, "lon": 77.2222423, "tags": {"addr:street": "Radial Road 6", "alt_name": "Haldiram", "amenity": "fast_food", "brand": "Haldiram's", "brand:wikidata": "Q17054442", "cuisine": "indian", "diet:vegan": "yes", "diet:vegetarian": "yes", "indoor_seating": "yes", "name": "Haldiram's", "outdoor_seating": "no", "takeaway": "yes", "toilets": "yes"}}, {"type": "node", "id": 5068227542, "lat": 28.6297651, "lon": 77.2224663, "tags": {"amenity": "food_court", "name": "FRUIT & CHATT CORNER"}}, {"type": "node", "id": 5068237785, "lat": 28.630164, "lon": 77.2230255, "tags": {"amenity": "food_court", "name": "Food Croner"}}, {"type": "node", "id": 5577534325, "lat": 28.6342788, "lon": 77.2176384, "tags": {"amenity": "fast_food", "cuisine": "burger", "diet:vegan": "yes", "diet:vegetarian": "yes", "name": "Burger Singh", "phone": "+91-87671-21212", "toilets": "yes", "website": "https://burgersinghonline.com/"}}, {"type": "node", "id": 5601790638, "lat": 28.6429706, "lon": 77.2226296, "tags": {"amenity": "fast_food", "brand": "Burger King", "brand:wikidata": "Q177054", "cuisine": "burger", "name": "Burger King", "name:en": "Burger King", "takeaway": "yes"}}, {"type": "node", "id": 5647754558, "lat": 28.6316182, "lon": 77.2222311, "tags": {"amenity": "fast_food", "brand": "Subway", "brand:pa": "\u0a38\u0a2c\u0a35\u0a47\u0a05", "brand:ur": "\u0633\u0628 \u0648\u06d2", "brand:wikidata": "Q244457", "brand:wikipedia": "en:Subway (restaurant)", "cuisine": "sandwich", "diet:vegetarian": "yes", "name": "Subway", "name:pa": "\u0a38\u0a2c\u0a35\u0a47\u0a05", "name:ur": "\u0633\u0628 \u0648\u06d2", "opening_hours": "Mo-Su 11:00-23:00", "takeaway": "yes"}}, {"type": "node", "id": 5771449331, "lat": 28.6421748, "lon": 77.2183515, "tags": {"amenity": "fast_food", "diet:vegetarian": "only", "name": "Pure Veg Foods"}}, {"type": "node", "id": 5792048841, "lat": 28.6310681, "lon": 77.2147904, "tags": {"addr:city": "New Delhi", "amenity": "fast_food", "cuisine": "indian", "name": "Coffee Home"}}, {"type": "node", "id": 5792049366, "lat": 28.6315538, "lon": 77.2162363, "tags": {"amenity": "fast_food", "brand": "Subway", "brand:pa": "\u0a38\u0a2c\u0a35\u0a47\u0a05", "brand:ur": "\u0633\u0628 \u0648\u06d2", "brand:wikidata": "Q244457", "brand:wikipedia": "en:Subway (restaurant)", "cuisine": "sandwich", "diet:vegetarian": "yes", "level": "0", "name": "Subway", "name:pa": "\u0a38\u0a2c\u0a35\u0a47\u0a05", "name:ur": "\u0633\u0628 \u0648\u06d2", "operator": "Aarbee International LLP", "takeaway": "yes"}}, {"type": "node", "id": 5841456285, "lat": 28.6333172, "lon": 77.2226137, "tags": {"amenity": "fast_food", "brand": "Domino's", "brand:wikidata": "Q839466", "cuisine": "pizza", "diet:vegan": "yes", "diet:vegetarian": "yes", "name": "Domino's", "takeaway": "yes"}}, {"type": "node", "id": 5914043786, "lat": 28.6290515, "lon": 77.2200995, "tags": {"addr:housename": "Scindia House", "addr:postcode": "110001", "addr:unit": "G-34", "amenity": "fast_food", "email": "info@sagaworldtravels.in", "website": "http://sagatravels.in"}}, {"type": "node", "id": 6161690525, "lat": 28.633622, "lon": 77.2222396, "tags": {"amenity": "fast_food", "diet:vegan": "yes", "diet:vegetarian": "yes", "indoor_seating": "yes", "name": "Nirula's", "outdoor_seating": "no", "toilets": "no"}}, {"type": "node", "id": 6277332185, "lat": 28.6305945, "lon": 77.220264, "tags": {"amenity": "fast_food", "cuisine": "kabab", "name": "Qureshi Kabab"}}, {"type": "node", "id": 6322136985, "lat": 28.6407857, "lon": 77.213179, "tags": {"amenity": "fast_food", "name": "Tea Tchai to take away"}}, {"type": "node", "id": 6340904485, "lat": 28.6471993, "lon": 77.2359366, "tags": {"addr:postcode": "110006", "amenity": "fast_food", "name": "Dilpasand Byriani Taufiq Byriani Wala"}}, {"type": "node", "id": 6487154686, "lat": 28.6440465, "lon": 77.2124248, "tags": {"amenity": "fast_food", "name": "Amazing chole stand"}}, {"type": "node", "id": 6761961064, "lat": 28.6347974, "lon": 77.2201885, "tags": {"amenity": "fast_food", "cuisine": "roll", "diet:vegan": "yes", "diet:vegetarian": "yes", "level": "0", "name": "Halka Fulka", "name:hi": "\u0939\u0932\u0915\u093e \u092b\u093c\u0941\u0932\u0915\u093e", "wheelchair": "yes"}}, {"type": "node", "id": 6814370612, "lat": 28.6288935, "lon": 77.2187659, "tags": {"addr:city": "New Delhi", "addr:district": "Connaught Place", "addr:housename": "Janpath Bhawan", "addr:subdistrict": "Janpath Market", "addr:unit": "19", "amenity": "fast_food", "contact:phone": "+91-99999-12566", "cuisine": "roll", "delivery": "yes", "name": "34, Chowringhee Lane", "opening_hours": "Mo-Su 11:00-22:00"}}, {"type": "node", "id": 6898010185, "lat": 28.6305923, "lon": 77.2172927, "tags": {"addr:city": "New Delhi", "amenity": "fast_food", "name": "Mcdonald", "wheelchair": "no"}}, {"type": "node", "id": 7062639241, "lat": 28.6302271, "lon": 77.2202118, "tags": {"amenity": "fast_food", "brand": "Taco Bell", "brand:wikidata": "Q752941", "cuisine": "tex-mex", "diet:lacto_vegetarian": "yes", "diet:vegetarian": "yes", "name": "Taco Bell", "note": "Seat and table count only for the first level.", "seats": "60", "tables": "20", "takeaway": "yes", "wheelchair": "limited"}}, {"type": "node", "id": 8112911414, "lat": 28.6249306, "lon": 77.23039, "tags": {"amenity": "fast_food", "name": "Cigarette shop"}}, {"type": "node", "id": 8982438637, "lat": 28.6279832, "lon": 77.2198697, "tags": {"alt_name": "Haldiram", "amenity": "fast_food", "brand": "Haldiram's", "brand:wikidata": "Q17054442", "cuisine": "indian", "name": "Haldiram's", "takeaway": "yes"}}, {"type": "node", "id": 9037176590, "lat": 28.6328354, "lon": 77.2215945}, {"type": "node", "id": 9182101626, "lat": 28.6248527, "lon": 77.2156648, "tags": {"amenity": "fast_food", "cuisine": "punjabi", "diet:lacto_vegetarian": "yes", "name": "Baba Ka Dhaba"}}, {"type": "node", "id": 9182101627, "lat": 28.6249403, "lon": 77.2156614, "tags": {"amenity": "fast_food", "cuisine": "South Indian", "diet:vegan": "yes", "name": "Kutty's", "takeaway": "yes"}}, {"type": "node", "id": 9202231253, "lat": 28.6348478, "lon": 77.2194897, "tags": {"amenity": "fast_food", "diet:vegan": "yes", "diet:vegetarian": "yes", "name": "Tau", "name:hi": "\u0924\u093e\u090a"}}, {"type": "node", "id": 9212682337, "lat": 28.6301065, "lon": 77.2174139, "tags": {"amenity": "fast_food", "name": "Daryaganj"}}, {"type": "node", "id": 10278723509, "lat": 28.6433132, "lon": 77.214524, "tags": {"amenity": "fast_food", "name": "Shiv Dhaba"}}, {"type": "node", "id": 10581181205, "lat": 28.6341122, "lon": 77.2209068, "tags": {"amenity": "fast_food", "diet:vegan": "yes", "diet:vegetarian": "yes", "level": "0;1", "name": "Khan Chacha", "wheelchair": "limited"}}, {"type": "node", "id": 10777024289, "lat": 28.6331511, "lon": 77.2196455}, {"type": "node", "id": 10777024290, "lat": 28.6331788, "lon": 77.2196167}, {"type": "node", "id": 10777024291, "lat": 28.6331152, "lon": 77.2196724}, {"type": "node", "id": 10777024292, "lat": 28.6331759, "lon": 77.2198588}, {"type": "node", "id": 10777024293, "lat": 28.6332012, "lon": 77.2198514}, {"type": "node", "id": 10777024294, "lat": 28.6332112, "lon": 77.2198702}, {"type": "node", "id": 10777024295, "lat": 28.6332665, "lon": 77.2196496}, {"type": "node", "id": 10807373954, "lat": 28.6331974, "lon": 77.2198123, "tags": {"amenity": "fast_food", "brand": "Burger King", "brand:wikidata": "Q177054", "cuisine": "burger", "diet:vegan": "yes", "diet:vegetarian": "yes", "indoor_seating": "yes", "level": "-1", "name": "Burger King", "outdoor_seating": "no", "takeaway": "yes"}}, {"type": "node", "id": 10807373955, "lat": 28.633213, "lon": 77.2196295, "tags": {"access": "customers", "door": "sliding", "indoor": "door", "level": "-1"}}, {"type": "node", "id": 10807373956, "lat": 28.63318, "lon": 77.2197729, "tags": {"air_conditioning": "yes", "amenity": "fast_food", "diet:vegan": "yes", "diet:vegetarian": "yes", "indoor_seating": "yes", "level": "-1", "name": "Onli Eggs", "outdoor_seating": "no"}}, {"type": "node", "id": 10807373957, "lat": 28.6331724, "lon": 77.2196516, "tags": {"air_conditioning": "yes", "amenity": "fast_food", "cuisine": "biryani", "level": "-1", "name": "Biryani Blues", "toilets": "no"}}, {"type": "node", "id": 10807373958, "lat": 28.6331663, "lon": 77.2197446, "tags": {"air_conditioning": "yes", "amenity": "fast_food", "cuisine": "sandwich;wrap", "diet:vegan": "yes", "diet:vegetarian": "yes", "indoor_seating": "yes", "level": "-1", "name": "Sub91", "operator": "Global QSR"}}, {"type": "node", "id": 10807373959, "lat": 28.6333556, "lon": 77.2196548, "tags": {"amenity": "fast_food", "indoor_seating": "no", "level": "-1", "name": "Food Express"}}, {"type": "node", "id": 10807373960, "lat": 28.6331519, "lon": 77.2197157, "tags": {"amenity": "fast_food", "brand": "Wow! Momo", "brand:wikidata": "Q8037446", "contact:email": "info@wowmomo.co.in", "contact:mobile": "+91-98361-98361", "cuisine": "momo", "diet:vegan": "yes", "diet:vegetarian": "yes", "indoor_seating": "yes", "level": "-1", "name": "Wow! Momo", "outdoor_seating": "yes", "takeaway": "yes"}}, {"type": "node", "id": 10924124860, "lat": 28.6342866, "lon": 77.2215574, "tags": {"air_conditioning": "no", "amenity": "fast_food", "diet:vegan": "yes", "diet:vegetarian": "yes", "indoor_seating": "yes", "name": "Rolls King", "outdoor_seating": "no", "smoking": "yes"}}, {"type": "node", "id": 10924124884, "lat": 28.6335298, "lon": 77.2220619, "tags": {"amenity": "fast_food", "diet:vegan": "yes", "diet:vegetarian": "yes", "name": "Shakes & Snacks Corner"}}, {"type": "node", "id": 10940744605, "lat": 28.6334888, "lon": 77.2196554, "tags": {"amenity": "fast_food", "diet:vegan": "yes", "diet:vegetarian": "yes", "name": "Food Hub"}}, {"type": "node", "id": 10940744607, "lat": 28.6323267, "lon": 77.21918, "tags": {"amenity": "fast_food", "brand": "Mother Dairy", "name": "Mother Dairy"}}, {"type": "node", "id": 10940744608, "lat": 28.6324163, "lon": 77.2190679, "tags": {"amenity": "fast_food", "level": "-1", "name": "Food On The Go"}}, {"type": "node", "id": 11107300906, "lat": 28.6293136, "lon": 77.220411, "tags": {"addr:street": "Janpath", "amenity": "fast_food", "name": "Bhogal's Chhole Bhature"}}, {"type": "node", "id": 11242857869, "lat": 28.6431435, "lon": 77.2214256, "tags": {"amenity": "fast_food", "brand": "Wow! Momo", "brand:wikidata": "Q8037446", "cuisine": "momo", "level": "0", "name": "Wow! Momo", "takeaway": "yes", "wheelchair": "limited"}}, {"type": "node", "id": 11242857870, "lat": 28.6431932, "lon": 77.2214202, "tags": {"alt_name": "Haldiram", "amenity": "fast_food", "brand": "Haldiram's", "brand:wikidata": "Q17054442", "cuisine": "indian", "level": "0", "name": "Haldiram's", "takeaway": "yes", "wheelchair": "no"}}, {"type": "node", "id": 11242857872, "lat": 28.6430902, "lon": 77.2214359, "tags": {"amenity": "fast_food", "level": "0", "name": "Diner & Burger"}}, {"type": "node", "id": 11242857874, "lat": 28.6429353, "lon": 77.2214586, "tags": {"alt_name": "Kentucky Fried Chicken", "alt_name:en": "Kentucky Fried Chicken", "alt_name:hi": "\u0915\u0947\u0902\u091f\u0941\u0915\u0940 \u092b\u094d\u0930\u093e\u0907\u0921 \u091a\u093f\u0915\u0928", "alt_name:pa": "\u0a15\u0a48\u0a02\u0a1f\u0a41\u0a15\u0a40 \u0a2b\u0a4d\u0a30\u0a3e\u0a08\u0a21 \u0a1a\u0a3f\u0a15\u0a28", "alt_name:pnb": "\u06a9\u06cc\u0646\u0679\u06a9\u06cc \u0641\u0631\u0627\u0626\u06cc\u0688 \u0686\u06a9\u0646", "alt_name:ur": "\u06a9\u06cc\u0646\u0679\u06a9\u06cc \u0641\u0631\u0627\u0626\u06cc\u0688 \u0686\u06a9\u0646", "amenity": "fast_food", "brand": "KFC", "brand:en": "KFC", "brand:hi": "\u0915\u0947\u090f\u092b\u0938\u0940", "brand:pa": "\u0a15\u0a47\u0a10\u0a2b\u0a38\u0a40", "brand:pnb": "\u06a9\u06d2 \u0627\u06cc\u0641 \u0633\u06cc", "brand:ur": "\u06a9\u06d2 \u0627\u06cc\u0641 \u0633\u06cc", "brand:wikidata": "Q524757", "cuisine": "chicken", "level": "0", "name": "KFC", "name:en": "KFC", "name:hi": "\u0915\u0947\u090f\u092b\u0938\u0940", "name:pa": "\u0a15\u0a47\u0a10\u0a2b\u0a38\u0a40", "name:pnb": "\u06a9\u06d2 \u0627\u06cc\u0641 \u0633\u06cc", "name:ur": "\u06a9\u06d2 \u0627\u06cc\u0641 \u0633\u06cc", "takeaway": "yes"}}, {"type": "node", "id": 11422635852, "lat": 28.6253125, "lon": 77.2338358, "tags": {"amenity": "fast_food", "brand": "Jumbo King", "cuisine": "burger", "level": "-1", "name": "Jumbo King", "takeaway": "yes"}}, {"type": "node", "id": 11432295892, "lat": 28.6332285, "lon": 77.219734, "tags": {"amenity": "fast_food", "cuisine": "pasta;noodle;soup", "diet:vegan": "yes", "diet:vegetarian": "yes", "indoor_seating": "yes", "level": "-1", "name": "Pasta Bowl", "outdoor_seating": "no"}}, {"type": "node", "id": 11443122899, "lat": 28.6332468, "lon": 77.2196422, "tags": {"access": "customers", "door": "sliding", "indoor": "door", "level": "-1"}}, {"type": "node", "id": 11443122901, "lat": 28.6334073, "lon": 77.219453, "tags": {"amenity": "fast_food", "diet:vegan": "yes", "diet:vegetarian": "yes", "indoor_seating": "no", "level": "-1", "name": "Metro Trip", "outdoor_seating": "no"}}, {"type": "node", "id": 11443122903, "lat": 28.6333849, "lon": 77.219661, "tags": {"amenity": "fast_food", "diet:vegan": "yes", "diet:vegetarian": "yes", "level": "-1", "name": "Bake N Brew Cafe"}}, {"type": "node", "id": 11443122904, "lat": 28.6333323, "lon": 77.2196438, "tags": {"amenity": "fast_food", "diet:vegan": "yes", "diet:vegetarian": "yes", "level": "-1", "name": "Bake N More"}}, {"type": "node", "id": 11443122905, "lat": 28.6334856, "lon": 77.2194828, "tags": {"amenity": "fast_food", "diet:vegan": "yes", "diet:vegetarian": "yes", "level": "-1", "name": "Joie Cafe"}}, {"type": "node", "id": 11443122906, "lat": 28.633415, "lon": 77.2196719, "tags": {"amenity": "fast_food", "brand": "Jumbo King", "cuisine": "burger", "level": "-1", "name": "Jumbo King", "takeaway": "yes"}}, {"type": "node", "id": 11443122908, "lat": 28.6334321, "lon": 77.2194643, "tags": {"amenity": "fast_food", "diet:vegan": "yes", "diet:vegetarian": "yes", "indoor_seating": "no", "level": "-1", "name": "Burgitos"}}, {"type": "node", "id": 11443122909, "lat": 28.6334588, "lon": 77.2194758, "tags": {"amenity": "fast_food", "diet:vegan": "yes", "diet:vegetarian": "yes", "indoor_seating": "no", "level": "-1", "name": "Foodies Point", "outdoor_seating": "no"}}, {"type": "node", "id": 11443122911, "lat": 28.6333051, "lon": 77.2196356, "tags": {"amenity": "fast_food", "diet:vegan": "yes", "diet:vegetarian": "yes", "level": "-1", "name": "Metro Walkers"}}, {"type": "node", "id": 11443161938, "lat": 28.6325951, "lon": 77.2191445, "tags": {"amenity": "fast_food", "level": "-1", "name": "Food on the Go"}}, {"type": "node", "id": 11470007791, "lat": 28.6324451, "lon": 77.2194261, "tags": {"amenity": "fast_food", "level": "-1", "name": "Hira Sweets"}}, {"type": "node", "id": 11470007792, "lat": 28.6326411, "lon": 77.2191628, "tags": {"amenity": "fast_food", "level": "-1", "name": "Metro Trip Caf\u00e9"}}, {"type": "node", "id": 11470007793, "lat": 28.6325547, "lon": 77.2193254, "tags": {"amenity": "fast_food", "brand": "Jumbo King", "brand:wikidata": "Q6310895", "cuisine": "burger", "level": "-1", "name": "Jumbo King", "takeaway": "yes"}}, {"type": "node", "id": 11470007796, "lat": 28.6325131, "lon": 77.2193045, "tags": {"amenity": "fast_food", "level": "-1", "name": "Joie Cafe"}}, {"type": "node", "id": 11470007797, "lat": 28.6327056, "lon": 77.2191535, "tags": {"amenity": "fast_food", "brand": "Burger King", "brand:wikidata": "Q177054", "cuisine": "burger", "level": "-1", "name": "Burger King", "takeaway": "yes"}}, {"type": "node", "id": 11470007800, "lat": 28.6325862, "lon": 77.2197653, "tags": {"amenity": "fast_food", "level": "-1", "name": "Bakers Pride"}}, {"type": "node", "id": 11470007801, "lat": 28.6325349, "lon": 77.219316, "tags": {"amenity": "fast_food", "level": "-1", "name": "Bake n More"}}, {"type": "node", "id": 11558063771, "lat": 28.6349668, "lon": 77.2220253, "tags": {"amenity": "fast_food", "name": "Kake-Da-Hotel", "takeaway": "yes", "url": "https://www.kakedahotel.in"}}, {"type": "node", "id": 11622913369, "lat": 28.6303945, "lon": 77.2200943, "tags": {"amenity": "fast_food", "brand": "McDonald's", "brand:wikidata": "Q38076", "cuisine": "burger", "name": "McDonald's", "takeaway": "yes"}}, {"type": "node", "id": 11633569770, "lat": 28.6302373, "lon": 77.2218751, "tags": {"amenity": "fast_food", "brand": "McDonald's", "brand:wikidata": "Q38076", "cuisine": "burger", "name": "McDonald's", "takeaway": "yes"}}, {"type": "node", "id": 11633581069, "lat": 28.6306564, "lon": 77.221806, "tags": {"amenity": "fast_food", "name": "r"}}, {"type": "node", "id": 11637682198, "lat": 28.6324593, "lon": 77.2190911, "tags": {"amenity": "fast_food", "brand": "Burger Singh", "cuisine": "burger", "level": "-1", "name": "Burger Singh", "takeaway": "yes"}}, {"type": "node", "id": 11642004110, "lat": 28.6296343, "lon": 77.2323808, "tags": {"amenity": "fast_food", "cuisine": "south_indian", "name": "Southy"}}, {"type": "node", "id": 11760985813, "lat": 28.6293719, "lon": 77.2319366, "tags": {"air_conditioning": "yes", "amenity": "fast_food", "brand": "Wow! Momo", "brand:wikidata": "Q8037446", "cuisine": "momo", "level": "0", "name": "Wow! Momo", "seats": "4", "tables": "3", "takeaway": "yes"}}, {"type": "node", "id": 11801338399, "lat": 28.6391707, "lon": 77.2083739, "tags": {"amenity": "fast_food", "indoor_seating": "yes", "level": "0", "name": "Food Forum"}}, {"type": "node", "id": 11801338400, "lat": 28.6391886, "lon": 77.2083409, "tags": {"amenity": "fast_food", "cuisine": "burger", "indoor_seating": "yes", "level": "0", "name": "The Burger Co."}}, {"type": "node", "id": 11801338401, "lat": 28.639123, "lon": 77.2084365, "tags": {"amenity": "fast_food", "indoor_seating": "yes", "level": "0", "name": "Diana"}}, {"type": "node", "id": 11801338402, "lat": 28.6390886, "lon": 77.2085054, "tags": {"amenity": "fast_food", "bar": "no", "brand": "Pizza Hut", "brand:wikidata": "Q191615", "cuisine": "pizza", "level": "0", "name": "Pizza Hut"}}, {"type": "node", "id": 11801338403, "lat": 28.6391433, "lon": 77.208405, "tags": {"amenity": "fast_food", "brand": "Subway", "brand:wikidata": "Q244457", "cuisine": "sandwich", "level": "0", "name": "Subway", "takeaway": "yes"}}, {"type": "node", "id": 11808931821, "lat": 28.6482341, "lon": 77.2001091, "tags": {"alt_name": "Haldiram", "amenity": "fast_food", "brand": "Haldiram's", "brand:wikidata": "Q17054442", "cuisine": "indian", "name": "Haldiram's", "takeaway": "yes"}}, {"type": "node", "id": 11833042044, "lat": 28.6455843, "lon": 77.209833, "tags": {"alt_name": "Kentucky Fried Chicken", "alt_name:en": "Kentucky Fried Chicken", "alt_name:hi": "\u0915\u0947\u0902\u091f\u0941\u0915\u0940 \u092b\u094d\u0930\u093e\u0907\u0921 \u091a\u093f\u0915\u0928", "alt_name:pa": "\u0a15\u0a48\u0a02\u0a1f\u0a41\u0a15\u0a40 \u0a2b\u0a4d\u0a30\u0a3e\u0a08\u0a21 \u0a1a\u0a3f\u0a15\u0a28", "alt_name:pnb": "\u06a9\u06cc\u0646\u0679\u06a9\u06cc \u0641\u0631\u0627\u0626\u06cc\u0688 \u0686\u06a9\u0646", "alt_name:ur": "\u06a9\u06cc\u0646\u0679\u06a9\u06cc \u0641\u0631\u0627\u0626\u06cc\u0688 \u0686\u06a9\u0646", "amenity": "fast_food", "brand": "KFC", "brand:en": "KFC", "brand:hi": "\u0915\u0947\u090f\u092b\u0938\u0940", "brand:pa": "\u0a15\u0a47\u0a10\u0a2b\u0a38\u0a40", "brand:pnb": "\u06a9\u06d2 \u0627\u06cc\u0641 \u0633\u06cc", "brand:ur": "\u06a9\u06d2 \u0627\u06cc\u0641 \u0633\u06cc", "brand:wikidata": "Q524757", "cuisine": "chicken", "level": "1", "name": "KFC", "name:en": "KFC", "name:hi": "\u0915\u0947\u090f\u092b\u0938\u0940", "name:pa": "\u0a15\u0a47\u0a10\u0a2b\u0a38\u0a40", "name:pnb": "\u06a9\u06d2 \u0627\u06cc\u0641 \u0633\u06cc", "name:ur": "\u06a9\u06d2 \u0627\u06cc\u0641 \u0633\u06cc", "takeaway": "yes", "wheelchair": "no"}}, {"type": "node", "id": 11868686972, "lat": 28.6207747, "lon": 77.2269764, "tags": {"amenity": "fast_food", "level": "0", "wheelchair": "yes"}}, {"type": "node", "id": 11936561378, "lat": 28.626621, "lon": 77.2328795, "tags": {"amenity": "fast_food", "indoor_seating": "no", "level": "0", "name": "BM Snacks", "wheelchair": "yes"}}, {"type": "node", "id": 11971462046, "lat": 28.6440102, "lon": 77.2012615, "tags": {"amenity": "fast_food", "brand": "Domino's", "brand:wikidata": "Q839466", "cuisine": "pizza", "level": "0", "name": "Domino's", "takeaway": "yes", "wheelchair": "no"}}, {"type": "node", "id": 11982517603, "lat": 28.6330025, "lon": 77.2226872, "tags": {"amenity": "fast_food", "brand": "Domino's", "brand:wikidata": "Q839466", "cuisine": "pizza", "level": "0", "name": "Domino's", "takeaway": "yes", "wheelchair": "yes"}}, {"type": "node", "id": 12098494669, "lat": 28.6327701, "lon": 77.2221893, "tags": {"amenity": "fast_food", "cuisine": "indian", "level": "0", "name": "Recharge Zone", "operator": "Hamdard Foods Limited"}}, {"type": "node", "id": 12098553739, "lat": 28.6328687, "lon": 77.2214622}, {"type": "node", "id": 12098553791, "lat": 28.6328742, "lon": 77.2215927}, {"type": "node", "id": 12098570001, "lat": 28.6328306, "lon": 77.2214643}, {"type": "node", "id": 12185793075, "lat": 28.6264316, "lon": 77.2122984, "tags": {"air_conditioning": "no", "amenity": "fast_food", "level": "0", "name": "V Canteen", "outdoor_seating": "yes", "smoking": "no", "wheelchair": "yes"}}, {"type": "node", "id": 12592571431, "lat": 28.633381, "lon": 77.2194406, "tags": {"air_conditioning": "yes", "amenity": "fast_food", "brand": "Popeyes", "cuisine": "chicken", "indoor_seating": "yes", "level": "-1", "name": "Popeyes", "official_name": "Popeyes Louisiana Kitchen", "takeaway": "yes", "wheelchair": "no"}}, {"type": "node", "id": 12592571433, "lat": 28.6324913, "lon": 77.2192982, "tags": {"amenity": "fast_food", "brand": "Burgitos", "cuisine": "burger", "indoor_seating": "no", "level": "-1", "name": "Burgitos", "outdoor_seating": "no", "takeaway": "yes"}}, {"type": "node", "id": 12592571434, "lat": 28.632574, "lon": 77.2193349, "tags": {"air_conditioning": "yes", "amenity": "fast_food", "level": "-1", "name": "Hira Sweets", "toilets:wheelchair": "no"}}, {"type": "node", "id": 12896531743, "lat": 28.6326142, "lon": 77.2062373, "tags": {"amenity": "fast_food", "changing_table": "no", "cuisine": "indian", "indoor_seating": "yes", "name": "Gopal Ji Foods", "phone": "+91 98117 53953", "toilets:wheelchair": "no", "wheelchair": "no"}}, {"type": "node", "id": 12896614411, "lat": 28.6325051, "lon": 77.2064292, "tags": {"amenity": "fast_food", "level": "0", "name": "Kababs N Roll", "takeaway": "yes"}}, {"type": "node", "id": 12977546965, "lat": 28.6319331, "lon": 77.2211028, "tags": {"amenity": "fast_food", "cuisine": "bhel_puri"}}, {"type": "node", "id": 13142822679, "lat": 28.6253342, "lon": 77.2325863, "tags": {"amenity": "fast_food", "cuisine": "momo"}}, {"type": "way", "id": 164676031, "nodes": [1762947783, 1762947804, 1762947752, 3585193028, 1762947783], "tags": {"alt_name": "Dunkin' Donuts", "amenity": "fast_food", "brand": "Dunkin'", "brand:wikidata": "Q847743", "building": "yes", "cuisine": "donut;coffee_shop", "name": "Dunkin'", "takeaway": "yes"}}, {"type": "way", "id": 352218115, "nodes": [3579753850, 3579753854, 3579753853, 3579753848, 3579753850], "tags": {"addr:city": "New Delhi", "amenity": "fast_food", "brand": "McDonald's", "brand:pa": "\u0a2e\u0a48\u0a15\u0a21\u0a4b\u0a28\u0a32\u0a21\u2019\u0a1c\u0a3c", "brand:ur": "\u0645\u06a9\u0688\u0648\u0646\u0644\u0688\u0632", "brand:wikidata": "Q38076", "brand:wikipedia": "en:McDonald's", "brand:wikipedia:pa": "\u0a2e\u0a48\u0a15\u0a21\u0a4b\u0a28\u0a32\u0a21\u2019\u0a1c\u0a3c", "brand:wikipedia:ur": "\u0645\u06a9\u0688\u0648\u0646\u0644\u0688\u0632", "building": "yes", "cuisine": "burger;french_fries", "name": "McDonald's", "name:pa": "\u0a2e\u0a48\u0a15\u0a21\u0a4b\u0a28\u0a32\u0a21\u2019\u0a1c\u0a3c", "name:ur": "\u0645\u06a9\u0688\u0648\u0646\u0644\u0688\u0632", "takeaway": "yes"}}, {"type": "way", "id": 1158884366, "nodes": [10777024290, 10807373955, 11443122899, 10777024295, 10777024294, 10777024293, 10777024292, 10777024291, 10777024289, 10777024290], "tags": {"air_conditioning": "yes", "amenity": "food_court", "diet:vegan": "yes", "diet:vegetarian": "yes", "indoor": "room", "indoor_seating": "yes", "level": "-1", "name": "The Tapooz Food Court", "outdoor_seating": "no"}}, {"type": "way", "id": 1306328981, "nodes": [9037176590, 12098553791, 12098553739, 12098570001, 9037176590], "tags": {"air_conditioning": "yes", "amenity": "fast_food", "brand": "Burger King", "brand:pa": "\u0a2c\u0a30\u0a17\u0a30 \u0a15\u0a3f\u0a70\u0a17", "brand:ur": "\u0628\u0631\u06af\u0631 \u06a9\u0646\u06af", "brand:wikidata": "Q177054", "brand:wikipedia": "en:Burger King", "brand:wikipedia:pa": "\u0a2c\u0a30\u0a17\u0a30 \u0a15\u0a3f\u0a70\u0a17", "brand:wikipedia:ur": "\u0628\u0631\u06af\u0631 \u06a9\u0646\u06af", "cuisine": "burger", "diet:vegan": "yes", "diet:vegetarian": "yes", "level": "0;1", "name": "Burger King", "name:pa": "\u0a2c\u0a30\u0a17\u0a30 \u0a15\u0a3f\u0a70\u0a17", "name:ru": "\u0411\u0443\u0440\u0433\u0435\u0440 \u041a\u0438\u043d\u0433", "name:ur": "\u0628\u0631\u06af\u0631 \u06a9\u0646\u06af", "opening_hours": "Mo-Su 09:00-24:00", "takeaway": "yes", "toilets": "yes"}}]}