{"version": 0.6, "generator": "Overpass API 0.7.62.8 e802775f", "osm3s": {"timestamp_osm_base": "2025-12-07T21:17:00Z", "copyright": "The data included in this document is from www.openstreetmap.org. The data is made available under ODbL."}, "elements": [{"type": "node", "id": 477905086, "lat": 28.3960959, "lon": 77.0457401, "tags": {"amenity": "place_of_worship", "name": "Sri Radhe Krishna Temple", "religion": "hindu"}}, {"type": "node", "id": 12369289566, "lat": 28.42703, "lon": 77.0659509}, {"type": "node", "id": 12369289567, "lat": 28.4266377, "lon": 77.0663181}, {"type": "node", "id": 12369289568, "lat": 28.4268543, "lon": 77.0666093}, {"type": "node", "id": 12369289569, "lat": 28.4272139, "lon": 77.0662561}, {"type": "node", "id": 13089217206, "lat": 28.4159187, "lon": 77.0605742, "tags": {"addr:city": "Gurgaon", "addr:district": "Gurgaon", "addr:housenumber": "Fresco Aprtments", "addr:postcode": "122018", "addr:street": "Nirvana Country Main Road", "amenity": "place_of_worship", "denomination": "landmark", "name": "Fresco Temple", "religion": "hindu"}}, {"type": "way", "id": 1337326033, "nodes": [12369289566, 12369289567, 12369289568, 12369289569, 12369289566], "tags": {"addr:village": "Samaspur", "amenity": "place_of_worship", "building": "yes", "name": "Radha Krishan Temple", "religion": "hindu"}}]}