{"version": 0.6, "generator": "Overpass API 0.7.62.8 e802775f", "osm3s": {"timestamp_osm_base": "2025-12-07T21:19:00Z", "copyright": "The data included in this document is from www.openstreetmap.org. The data is made available under ODbL."}, "elements": [{"type": "node", "id": 5899883871, "lat": 25.3856259, "lon": 86.4706158, "tags": {"addr:city": "Munger", "addr:postcode": "811201", "addr:street": "Lal Darwaza Main Road", "amenity": "place_of_worship", "name": "Machhli Talaab Shivalaya", "religion": "hindu"}}, {"type": "node", "id": 8042823443, "lat": 25.383081, "lon": 86.4593238}, {"type": "node", "id": 8042823444, "lat": 25.3824825, "lon": 86.4592911}, {"type": "node", "id": 8042823445, "lat": 25.3824618, "lon": 86.4595261}, {"type": "node", "id": 8042823446, "lat": 25.383081, "lon": 86.4595653}, {"type": "node", "id": 13172896117, "lat": 25.3844328, "lon": 86.4798759, "tags": {"addr:city": "Munger", "addr:district": "District", "addr:postcode": "811202", "addr:street": "Basudeopur", "amenity": "place_of_worship", "name": "Durga Sthan", "religion": "hindu"}}, {"type": "way", "id": 863374965, "nodes": [8042823443, 8042823444, 8042823445, 8042823446, 8042823443], "tags": {"amenity": "place_of_worship", "building": "temple", "name": "Kashtharini Ghat", "religion": "hindu"}}]}