{"version": 0.6, "generator": "Overpass API 0.7.62.8 e802775f", "osm3s": {"timestamp_osm_base": "2025-12-07T21:17:00Z", "copyright": "The data included in this document is from www.openstreetmap.org. The data is made available under ODbL."}, "elements": [{"type": "node", "id": 477905091, "lat": 28.3978752, "lon": 77.0455899, "tags": {"amenity": "hospital", "healthcare": "hospital", "name": "Sai Heart and Trauma Center"}}, {"type": "node", "id": 738195671, "lat": 28.4172213, "lon": 77.0464822, "tags": {"amenity": "dentist", "healthcare": "dentist"}}, {"type": "node", "id": 738195679, "lat": 28.418911, "lon": 77.0445162, "tags": {"amenity": "dentist", "healthcare": "dentist"}}, {"type": "node", "id": 738195686, "lat": 28.4166071, "lon": 77.0499638, "tags": {"amenity": "doctors", "healthcare": "doctor"}}, {"type": "node", "id": 738195694, "lat": 28.4163412, "lon": 77.0496267, "tags": {"amenity": "doctors", "healthcare": "doctor"}}, {"type": "node", "id": 2749581456, "lat": 28.4143266, "lon": 77.0542239}, {"type": "node", "id": 2749581458, "lat": 28.4143267, "lon": 77.0542246}, {"type": "node", "id": 2749581463, "lat": 28.4143476, "lon": 77.0549162}, {"type": "node", "id": 2749581465, "lat": 28.4144933, "lon": 77.0542194}, {"type": "node", "id": 2749581467, "lat": 28.4144946, "lon": 77.0538479}, {"type": "node", "id": 2749581473, "lat": 28.4147387, "lon": 77.0547461}, {"type": "node", "id": 2749581475, "lat": 28.4149933, "lon": 77.0538613}, {"type": "node", "id": 3557531751, "lat": 28.4272057, "lon": 77.0573847}, {"type": "node", "id": 3557532013, "lat": 28.4274269, "lon": 77.0574511}, {"type": "node", "id": 3557532030, "lat": 28.427489, "lon": 77.0570054}, {"type": "node", "id": 3557532041, "lat": 28.4275354, "lon": 77.0577031}, {"type": "node", "id": 3557532056, "lat": 28.4275993, "lon": 77.0576176}, {"type": "node", "id": 3557532068, "lat": 28.4276463, "lon": 77.0571574}, {"type": "node", "id": 3558145012, "lat": 28.4235551, "lon": 77.0615056}, {"type": "node", "id": 3558145047, "lat": 28.4236848, "lon": 77.0616376}, {"type": "node", "id": 3558145056, "lat": 28.4238157, "lon": 77.0611742}, {"type": "node", "id": 3558145059, "lat": 28.4238317, "lon": 77.0613509}, {"type": "node", "id": 3558145067, "lat": 28.4238753, "lon": 77.0613953}, {"type": "node", "id": 3558145074, "lat": 28.423887, "lon": 77.0612806}, {"type": "node", "id": 4160473347, "lat": 28.4238513, "lon": 77.0612444}, {"type": "node", "id": 4160473348, "lat": 28.4238661, "lon": 77.0612255}, {"type": "node", "id": 6991770316, "lat": 28.4118439, "lon": 77.0485043, "tags": {"addr:district": "Gurgaon", "addr:full": "226, Medizone, The Sappire, Orchid Petal Road, Sohna road, Sector 49, Gurugram", "addr:postcode": "122018", "addr:state": "Haryana", "amenity": "clinic", "healthcare": "clinic", "healthcare:speciality": "Dental Services; Skin Care Services", "name": "Divine Look Clinic Centre", "operator:type": "private", "source": "OpenGovernmentData", "website": "http://www.divinelook.in/"}}, {"type": "node", "id": 6993926819, "lat": 28.4201363, "lon": 77.0487258, "tags": {"addr:district": "Gurgaon", "addr:full": "Q Block, South City 2, Sohna Road, Main Sec-47, Gurgaon", "addr:postcode": "122001", "addr:state": "Haryana", "amenity": "hospital", "contact:phone": "7503141435", "email": "gurgaon@parkhospital.in", "healthcare": "hospital", "healthcare:speciality": "multi speciality", "name": "Park Hospital Gurgaon", "operator:type": "private", "source": "OpenGovernmentData", "website": "https://parkhospital.in/"}}, {"type": "node", "id": 6997700218, "lat": 28.4142175, "lon": 77.0656693, "tags": {"addr:district": "Gurgaon", "addr:full": "A-126, Nirvana Courtyard,Nirvana Country, Gurgaon", "addr:postcode": "122018", "addr:state": "Haryana", "amenity": "clinic", "name": "Vatsalya Clinic", "operator:type": "private", "source": "OpenGovernmentData", "website": "http://www.vatsalyaclinic.com/"}}, {"type": "node", "id": 6997845822, "lat": 28.3966869, "lon": 77.0464955, "tags": {"addr:district": "Gurgaon", "addr:full": "Opposite Vatika Arcade, - Sohna Road", "addr:postcode": "122001", "addr:state": "Haryana", "amenity": "hospital", "healthcare": "hospital", "name": "Sona Devi Memorial Hospital and Trauma Centre", "source": "OpenGovernmentData"}}, {"type": "node", "id": 6997926204, "lat": 28.3970019, "lon": 77.045605, "tags": {"addr:district": "Gurgaon", "addr:full": "Badshapur", "addr:postcode": "122101", "addr:state": "Haryana", "amenity": "hospital", "healthcare": "hospital", "name": "Sai Dharamraj Hospital", "source": "OpenGovernmentData"}}, {"type": "node", "id": 6998006318, "lat": 28.3981002, "lon": 77.0453744, "tags": {"addr:district": "Gurgaon", "addr:full": "Main Sohna Road, Near Radha Krishna Temple Badshahpur", "addr:postcode": "122001", "addr:state": "Haryana", "amenity": "hospital", "healthcare": "hospital", "name": "Ekta Hospital", "source": "OpenGovernmentData"}}, {"type": "node", "id": 6998051836, "lat": 28.3969405, "lon": 77.046572, "tags": {"addr:district": "Gurgaon", "addr:full": "Near Radha Krishan Mandir, Opp Corporation Bank, Sohna Road, Badshahpur", "addr:postcode": "122001", "addr:state": "Haryana", "amenity": "hospital", "healthcare": "hospital", "name": "Sanjeevani Hospital, Gurgaon", "source": "OpenGovernmentData"}}, {"type": "node", "id": 7622826268, "lat": 28.416015, "lon": 77.048701, "tags": {"addr:district": "Gurugram", "addr:full": "C 09, Gf, South City II, Sector 49", "addr:postcode": "122015", "addr:state": "Haryana", "amenity": "doctors", "healthcare": "doctor", "name": "Dr. Naresh Pandita", "source": "Local Knowledge"}}, {"type": "node", "id": 7622826301, "lat": 28.4124174, "lon": 77.0486222, "tags": {"addr:district": "Gurugram", "addr:full": "St Mark Road, Orchid Petals, Sector 49", "addr:postcode": "122018", "addr:state": "Haryana", "amenity": "clinic", "healthcare": "clinic", "name": "Skin Clinic", "source": "Local Knowledge"}}, {"type": "node", "id": 7622826309, "lat": 28.4174052, "lon": 77.0462792, "tags": {"addr:district": "Gurugram", "addr:full": "B-23, Ground Floor, Complete Family Clinic, Near Sohna Road, Orchid Petals, Block K, South City II", "addr:postcode": "122018", "addr:state": "Haryana", "amenity": "clinic", "healthcare": "clinic", "name": "Best Urologist Atcomplete Family Clinic", "source": "Local Knowledge"}}, {"type": "node", "id": 7622826311, "lat": 28.4171183, "lon": 77.0465259, "tags": {"addr:district": "Gurugram", "addr:full": "South City 2, B Block Market, Shop 15, Near To Sohna Road, First Market On, Sector 49", "addr:postcode": "122003", "addr:state": "Haryana", "amenity": "clinic", "healthcare": "clinic", "name": "Wellness Eye Centre", "source": "Local Knowledge"}}, {"type": "node", "id": 7622826312, "lat": 28.4195288, "lon": 77.0488361, "tags": {"addr:district": "Gurugram", "addr:full": "Q1, 148, South City II, Sector 49", "addr:postcode": "122018", "addr:state": "Haryana", "amenity": "dentist", "healthcare": "dentist", "name": "Vishesh Dental", "source": "Local Knowledge"}}, {"type": "node", "id": 7622826313, "lat": 28.4214389, "lon": 77.0532822, "tags": {"addr:district": "Gurugram", "addr:full": "Good Earth City Centre First Floor", "addr:postcode": "122018", "addr:state": "Haryana", "amenity": "clinic", "healthcare": "clinic", "name": "Meher Clinic", "source": "Local Knowledge"}}, {"type": "node", "id": 7622826342, "lat": 28.416007, "lon": 77.048314, "tags": {"addr:district": "Gurugram", "addr:full": "Gf-224, Sector 22A", "addr:postcode": "122015", "addr:state": "Haryana", "amenity": "doctors", "healthcare": "doctor", "name": "Dr. Anuj Sharma", "source": "Local Knowledge"}}, {"type": "node", "id": 7622826351, "lat": 28.4168587, "lon": 77.0468088, "tags": {"addr:district": "Gurugram", "addr:full": "Shop No: 207, 2nd Floor, B Block Market, South City 2", "addr:postcode": "122002", "addr:state": "Haryana", "amenity": "doctors", "healthcare": "doctor", "name": "Dr. Aruna Kalra", "source": "Local Knowledge"}}, {"type": "node", "id": 7622826354, "lat": 28.418045, "lon": 77.052434, "tags": {"addr:district": "Gurugram", "addr:full": "Arcadia, Kimaya Healthcare- 315-B, South City II", "addr:postcode": "122018", "addr:state": "Haryana", "amenity": "clinic", "healthcare": "clinic", "name": "Bones Clinic - Orthopaedics", "source": "Local Knowledge"}}, {"type": "node", "id": 7622826363, "lat": 28.419095, "lon": 77.048334, "tags": {"addr:district": "Gurugram", "addr:full": "Q1 Block, 1\\68, South City II, Sector 49", "addr:postcode": "122018", "addr:state": "Haryana", "amenity": "clinic", "healthcare": "clinic", "name": "Neelkanth Health Care", "source": "Local Knowledge"}}, {"type": "node", "id": 10725545986, "lat": 28.4178591, "lon": 77.0560521, "tags": {"addr:city": "Gurugram", "addr:housenumber": "Shop No. 20", "addr:postcode": "122018", "addr:street": "First Floor, F Block Market, South City 2", "amenity": "clinic", "healthcare": "clinic", "healthcare:speciality": "physician;general_medicine;internal_medicine", "name": "Lifeline Mediclinic", "opening_hours": "Mo-Sa 09:00-20:00", "operator": "Dr. Amit Sharma, MD, DNB, MRCP", "operator:type": "private"}}, {"type": "node", "id": 10764174831, "lat": 28.3982332, "lon": 77.0640936, "tags": {"addr:city": "Gurugram", "addr:housenumber": "Shop 27, First Floor, North Block, M3M Tee Point, Sector 65", "addr:postcode": "122018", "addr:street": "Vikas Marg", "amenity": "dentist", "email": "haplivdentalclinic@gmail.com", "healthcare": "dentist", "healthcare:speciality": "orthodontics", "name": "Hapliv Dental Clinic", "opening_hours": "Mo-Su 10:00-20:00", "operator": "Dr. Achla Verma", "phone": "+919810471255", "website": "https://haplivdentalclinic.com"}}, {"type": "node", "id": 12270870747, "lat": 28.3921026, "lon": 77.0595315, "tags": {"amenity": "dentist", "healthcare": "dentist", "level": "1", "name": "Plams Dental Care"}}, {"type": "way", "id": 269829619, "nodes": [2749581456, 2749581458, 2749581463, 2749581473, 2749581475, 2749581467, 2749581465, 2749581456], "tags": {"amenity": "hospital", "barrier": "wall"}}, {"type": "way", "id": 349978194, "nodes": [3557531751, 3557532030, 3557532068, 3557532013, 3557532056, 3557532041, 3557531751], "tags": {"addr:city": "Gurugram", "addr:district": "Gurugram", "addr:housenumber": "MSJ House, Plot No. A-2", "addr:postcode": "122003", "addr:street": "Mayfield Gardens, Sector 47", "amenity": "hospital", "branch": "Sector 47", "building": "yes", "healthcare": "clinic", "healthcare:speciality": "fertility", "mobile": "+91-9972899728", "name": "Cloudnine Fertility Hospital", "name:en": "Cloudnine Fertility Hospital", "website": "https://www.cloudninefertility.com/centre/fertility-ivf-hospitals-in-sector-47"}}, {"type": "way", "id": 350059960, "nodes": [3558145056, 4160473348, 4160473347, 3558145074, 3558145059, 3558145067, 3558145047, 3558145012, 3558145056], "tags": {"addr:city": "Gurugram", "addr:postcode": "122001", "addr:street": "May Field Gardens", "amenity": "hospital", "building:levels": "4", "healthcare": "hospital", "name": "CK Birla Hospital Sector 51", "operator": "CK Birla", "operator:type": "private"}}]}