{"version": 0.6, "generator": "Overpass API 0.7.62.8 e802775f", "osm3s": {"timestamp_osm_base": "2025-12-07T21:19:00Z", "copyright": "The data included in this document is from www.openstreetmap.org. The data is made available under ODbL."}, "elements": [{"type": "node", "id": 7707833673, "lat": 25.3708402, "lon": 86.4739293}, {"type": "node", "id": 7707833674, "lat": 25.3707566, "lon": 86.4739022}, {"type": "node", "id": 7707833675, "lat": 25.3707403, "lon": 86.4739608}, {"type": "node", "id": 7707833676, "lat": 25.3707709, "lon": 86.4739744}, {"type": "node", "id": 7707833677, "lat": 25.3707586, "lon": 86.474024}, {"type": "node", "id": 7707833678, "lat": 25.3708055, "lon": 86.4740375}, {"type": "node", "id": 7707833679, "lat": 25.3708259, "lon": 86.4739992}, {"type": "way", "id": 825496142, "nodes": [7707833673, 7707833674, 7707833675, 7707833676, 7707833677, 7707833678, 7707833679, 7707833673], "tags": {"addr:city": "Munger", "addr:postcode": "811201", "addr:street": "Kaura Maidan", "building": "garage", "name": "Honda Service Center", "opening_hours": "Sa-Th 08:00-20:00", "opening_hours:covid19": "off", "operator": "Honda", "shop": "motorcycle_repair"}}]}