{"version": 0.6, "generator": "Overpass API 0.7.62.8 e802775f", "osm3s": {"timestamp_osm_base": "2025-12-07T20:35:00Z", "copyright": "The data included in this document is from www.openstreetmap.org. The data is made available under ODbL."}, "elements": [{"type": "node", "id": 395135219, "lat": 28.6243399, "lon": 77.2003585}, {"type": "node", "id": 395135221, "lat": 28.6255593, "lon": 77.2031394}, {"type": "node", "id": 395135222, "lat": 28.6277835, "lon": 77.2001246}, {"type": "node", "id": 395135224, "lat": 28.6253265, "lon": 77.1983531}, {"type": "node", "id": 928491343, "lat": 28.6416777, "lon": 77.2052683, "tags": {"amenity": "hospital", "check_date": "2024-04-12", "healthcare": "hospital", "name": "Delhi Heart and Lung Institute Super Speciality Hospital", "short_name": "DHLI"}}, {"type": "node", "id": 2829272927, "lat": 28.6262889, "lon": 77.202751}, {"type": "node", "id": 2929536184, "lat": 28.6374809, "lon": 77.2330286}, {"type": "node", "id": 2929536186, "lat": 28.6375778, "lon": 77.2313264}, {"type": "node", "id": 2929536194, "lat": 28.6390271, "lon": 77.2331429}, {"type": "node", "id": 2929536196, "lat": 28.639124, "lon": 77.2314407}, {"type": "node", "id": 3093873338, "lat": 28.6454365, "lon": 77.2251207, "tags": {"addr:city": "New Delhi", "addr:housenumber": "1/8B", "addr:postcode": "110002", "addr:street": "Asaf Ali Road", "amenity": "clinic", "name": "R D Jindal Charitable Clinic", "note": "Physiotherapy, Blood Collection, GP. Dentist available", "opening_hours": "10:00-14:00", "phone": "+91 11 3218206"}}, {"type": "node", "id": 3424259566, "lat": 28.6292249, "lon": 77.2322767, "tags": {"amenity": "doctors", "name": "Dr. Gandhi"}}, {"type": "node", "id": 3424264696, "lat": 28.6293653, "lon": 77.2319405, "tags": {"amenity": "doctors", "name": "Dr. Kundan Lal"}}, {"type": "node", "id": 4076670789, "lat": 28.6467122, "lon": 77.212921, "tags": {"amenity": "clinic", "name": "Dr. Krishan Gola", "wheelchair": "no"}}, {"type": "node", "id": 4774864180, "lat": 28.6426317, "lon": 77.2126592, "tags": {"addr:street": "Arya Nagar Road;Sang Trashan Marg", "amenity": "dentist", "name": "Anand Dental Care", "name:en": "Anand Dental Care", "name:hi": "Anand Dental Care"}}, {"type": "node", "id": 5345583329, "lat": 28.6255223, "lon": 77.2030551, "tags": {"barrier": "gate", "name": "Gate #4"}}, {"type": "node", "id": 5345583332, "lat": 28.6249061, "lon": 77.2016416, "tags": {"barrier": "gate", "name": "Gate #3"}}, {"type": "node", "id": 5345583333, "lat": 28.6247296, "lon": 77.2012472, "tags": {"barrier": "gate", "name": "Gate #2"}}, {"type": "node", "id": 5345583336, "lat": 28.6243843, "lon": 77.2004598, "tags": {"barrier": "gate", "name": "Gate #1"}}, {"type": "node", "id": 5345583346, "lat": 28.6243456, "lon": 77.1999754}, {"type": "node", "id": 7138493129, "lat": 28.6208562, "lon": 77.2004083, "tags": {"addr:district": "New Delhi", "addr:full": "No. 27, North Avenue Area, Near R M L Hospital", "addr:postcode": "110001", "addr:state": "Delhi", "amenity": "clinic", "contact:phone": "011-23092781", "description": "Dispensaries", "health_facility:type": "dispensary", "healthcare": "centre", "name": "President Estate Clinic", "source": "OpenGovernmentData"}}, {"type": "node", "id": 7138493163, "lat": 28.633024, "lon": 77.2111811, "tags": {"addr:district": "New Delhi", "addr:full": "Shaheed Bhagat Singh Marg, DIZ Area, Connaught Place", "addr:postcode": "110001", "addr:state": "Delhi", "amenity": "clinic", "contact:phone": "011-23365482", "description": "Polyclinic", "name": "New Delhi Municipal Council Polyclinic", "source": "OpenGovernmentData"}}, {"type": "node", "id": 7138493190, "lat": 28.6295482, "lon": 77.234083, "tags": {"addr:district": "New Delhi", "addr:full": "42, Ground Floor, Babar Road, Dispensary Complex", "addr:postcode": "110001", "addr:state": "Delhi", "amenity": "clinic", "contact:phone": "011-23739285", "description": "Dispensaries", "health_facility:type": "dispensary", "healthcare": "centre", "name": "Babar Road Allopathic Dispensary", "source": "OpenGovernmentData"}}, {"type": "node", "id": 7138493193, "lat": 28.6357652, "lon": 77.2110664, "tags": {"addr:district": "New Delhi", "addr:full": "C- 604, Connaught Circus, DIZ Area, Connaught Place, New Delhi", "addr:postcode": "110001", "addr:state": "Delhi", "amenity": "hospital", "contact:phone": "011 2334 4147", "name": "Kalawati Saran Children's Hospital", "source": "OpenGovernmentData"}}, {"type": "node", "id": 7138493196, "lat": 28.6371532, "lon": 77.236999, "tags": {"addr:district": "Central", "addr:full": "Bahadur Shah Zafar Marg, New Delhi", "addr:postcode": "110002", "addr:state": "Delhi", "amenity": "hospital", "contact:phone": "1123239279", "healthcare": "hospital", "name": "Maulana Azad Institute of Dental Sciences", "name:etymology:wikidata": "Q196617", "source": "OpenGovernmentData"}}, {"type": "node", "id": 7138493217, "lat": 28.622596, "lon": 77.1994817, "tags": {"addr:district": "New Delhi", "addr:full": "31, North Avenue", "addr:postcode": "110004", "addr:state": "Delhi", "amenity": "clinic", "contact:phone": "011-23094420", "description": "Dispensaries", "health_facility:type": "dispensary", "healthcare": "centre", "name": "CGHS Dispensary North Avenue", "source": "OpenGovernmentData"}}, {"type": "node", "id": 7138493247, "lat": 28.6227119, "lon": 77.2227032, "tags": {"addr:district": "New Delhi", "addr:full": "18-A, Telegraph Lane, Near Bhartiya Vidya Bhawan, Janpath , Diwanchand Imangning Centre", "addr:postcode": "110001", "addr:state": "Delhi", "amenity": "clinic", "contact:phone": "011-23717670 , 011-23326601", "description": "Dispensaries", "health_facility:type": "dispensary", "healthcare": "centre", "name": "H.C.M. Lane Allopathic Dispensary", "source": "OpenGovernmentData"}}, {"type": "node", "id": 7138493252, "lat": 28.6288565, "lon": 77.2001398, "tags": {"addr:district": "New Delhi", "addr:full": "DIZ Area, Udyan marg, Kalibari Marg, Near Birla Mandir", "addr:postcode": "110001", "addr:state": "Delhi", "amenity": "clinic", "contact:phone": "011-23743142", "description": "Dispensaries", "health_facility:type": "dispensary", "healthcare": "centre", "name": "CGHS Wellness Centre Kali Bari", "source": "OpenGovernmentData"}}, {"type": "node", "id": 7138493258, "lat": 28.6365867, "lon": 77.2173905, "tags": {"addr:district": "New Delhi", "addr:full": "Basant Lane, Paharganj, Connaught Place", "addr:postcode": "110055", "addr:state": "Delhi", "amenity": "hospital", "contact:phone": "011- 2334 4092", "description": "100-500 Bedded Hospital", "healthcare": "hospital", "name": "Central Hospital (Northern Railways)", "source": "OpenGovernmentData"}}, {"type": "node", "id": 7138534287, "lat": 28.634138, "lon": 77.212909, "tags": {"addr:district": "Central", "addr:full": "C-604, Shaheed Bhagat Singh Road, Diz Area, Connaught Place, New Delhi", "addr:postcode": "110001", "addr:state": "Delhi", "amenity": "hospital", "contact:nodal_officer_email": "serologyhailhmc@gmail.com", "contact:nodal_officer_mobile": "9868961269", "contact:phone": "1123363728", "healthcare": "hospital", "name": "Lady Hardinge Medical College & Associated Hospitals", "name:etymology:wikidata": "Q4020403", "source": "OpenGovernmentData"}}, {"type": "node", "id": 7138534296, "lat": 28.6472649, "lon": 77.2308534, "tags": {"addr:district": "Central", "addr:full": "MCW Center, 1st floor, Opposite Hamdard Dawa khana, Hauz Quzi, Lal Kuan", "addr:housenumber": "3870", "addr:postcode": "110006", "addr:state": "Delhi", "addr:street": "Sarak Prem Narain", "amenity": "hospital", "check_date": "2024-06-17", "contact:phone": "+91 23272611", "description": "M&CW Center", "healthcare": "birthing_centre", "name": "Free Maternity & Child Welfare Centeri", "source": "OpenGovernmentData"}}, {"type": "node", "id": 7138534298, "lat": 28.6447506, "lon": 77.2351031, "tags": {"addr:district": "Central", "addr:full": "Gali Takhat Wali Suiwalan, Kucha Chelan, Sheesh Mahal, Old Delhi, New Delhi", "addr:postcode": "110006", "addr:state": "Delhi", "amenity": "clinic", "contact:phone": "23243145", "description": "Dispensaries", "health_facility:type": "dispensary", "healthcare": "centre", "name": "DGD, Suiwalan", "source": "OpenGovernmentData"}}, {"type": "node", "id": 7138534362, "lat": 28.6427947, "lon": 77.2098113, "tags": {"addr:district": "Central", "addr:full": "ESI Dispensary Chuna Mandi, gali No.-10, Pahargaj, New Delhi", "addr:postcode": "110055", "addr:state": "Delhi", "amenity": "clinic", "contact:phone": "23580679", "description": "Dispensaries", "health_facility:type": "dispensary", "healthcare": "centre", "name": "ESI Dispensary, Chuna Mandi Paharganj", "source": "OpenGovernmentData"}}, {"type": "node", "id": 7138534396, "lat": 28.642259, "lon": 77.2084424, "tags": {"addr:district": "Central", "addr:full": "Aram Bagh, Behind Paharganj Police station, Pahargaj", "addr:postcode": "110055", "addr:state": "Delhi", "amenity": "clinic", "contact:phone": "23676019", "description": "Dispensaries", "health_facility:type": "dispensary", "healthcare": "centre", "name": "CGHS Dispensary, C.G. Road", "source": "OpenGovernmentData"}}, {"type": "node", "id": 7544955523, "lat": 28.6437984, "lon": 77.2381596, "tags": {"addr:district": "Central Delhi", "addr:full": "3123, Behind Golcha Cinema, Sir Syed Ahmed Road, Daryaganj", "addr:postcode": "110002", "addr:state": "Delhi", "amenity": "hospital", "healthcare": "hospital", "name": "Khadija National Hospital", "source": "Local Knowledge"}}, {"type": "node", "id": 8151246340, "lat": 28.6311711, "lon": 77.2170294, "tags": {"addr:city": "New Delhi", "addr:full": "L-43, Connaught Cir, Hanuman Road Area, Connaught Place, New Delhi, Delhi", "amenity": "hospital", "name": "Arvind Medicare"}}, {"type": "node", "id": 8151246349, "lat": 28.6267808, "lon": 77.2182706, "tags": {"addr:city": "New Delhi", "addr:full": "40, Tolstoy Rd, Atul Grove Road, Janpath, Connaught Place, New Delhi, Delhi", "amenity": "hospital", "name": "General Williams Hospital"}}, {"type": "node", "id": 8676806045, "lat": 28.6244251, "lon": 77.1997742}, {"type": "node", "id": 10945664767, "lat": 28.6267693, "lon": 77.2092035, "tags": {"amenity": "hospital", "name": "Guru Harkrishan Polyclinic Bangla Sahib", "phone": "011 23340171"}}, {"type": "node", "id": 11971462034, "lat": 28.6449856, "lon": 77.2021219, "tags": {"amenity": "dentist", "contact:mobile": "+91 98102 94477", "contact:website": "www.indident.com", "healthcare": "dentist", "level": "0", "name": "Indident Dental Clinic And Implantology Research Centre", "office": "research", "opening_hours": "Mo-Su 10:30-18:30", "wheelchair": "no"}}, {"type": "node", "id": 12052451552, "lat": 28.6420044, "lon": 77.2042941, "tags": {"amenity": "hospital", "healthcare": "hospital", "name": "Banwari Lal Charitable Trust Diagnostic Centre"}}, {"type": "node", "id": 12839647640, "lat": 28.6399323, "lon": 77.2040074, "tags": {"amenity": "clinic", "healthcare": "clinic", "level": "1", "name": "Ayush Polyclinic", "operator": "New Delhi Municipal Council"}}, {"type": "node", "id": 12896591906, "lat": 28.6334958, "lon": 77.2071356, "tags": {"amenity": "dentist", "healthcare": "dentist", "level": "0", "name": "The Pearl White Dental Clinic", "phone": "+91-85951-09391", "wheelchair": "limited"}}, {"type": "node", "id": 12896611359, "lat": 28.6325356, "lon": 77.207086, "tags": {"amenity": "clinic", "contact:mobile": "+91 92112 55993", "contact:phone": "+91 113442424", "healthcare": "clinic", "level": "0", "name": "Apollo Diagnostica Bones & Joints Clinic"}}, {"type": "node", "id": 12896628034, "lat": 28.6328201, "lon": 77.2073014, "tags": {"amenity": "doctors", "contact:mobile": "+91 96500 31223", "contact:phone": "+91 1122742", "healthcare": "doctor", "level": "1", "name": "Ballani Skin Aesthetics"}}, {"type": "node", "id": 12912482322, "lat": 28.6329446, "lon": 77.2073777, "tags": {"amenity": "dentist", "contact:mobile": "+91 981092451", "contact:phone": "+91 11 4476 4701", "healthcare": "dentist", "level": "0", "name": "Jain Dental Centre", "opening_hours": "09:00-19:00"}}, {"type": "node", "id": 12946711731, "lat": 28.6390622, "lon": 77.2325269}, {"type": "node", "id": 12946711732, "lat": 28.6385725, "lon": 77.2331093}, {"type": "way", "id": 34404757, "nodes": [395135219, 5345583336, 5345583333, 5345583332, 5345583329, 395135221, 2829272927, 395135222, 395135224, 8676806045, 5345583346, 395135219], "tags": {"addr:district": "New Delhi", "addr:full": "Baba Kharak Singh Marg, Near Bangla Sahib Gurudwara", "addr:postcode": "110001", "addr:state": "Delhi", "alt_name": "Wellingdon Hospital", "amenity": "hospital", "barrier": "wall", "contact:phone": "011-22344470; 23404040; 23365525;23404325", "description": ">500 Bedded Hospital", "healthcare": "hospital", "name": "Ram Manohar Lohia Hospital", "name:etymology:wikidata": "Q2759530", "name:hi": "\u0930\u093e\u092e \u092e\u0928\u094b\u0939\u0930 \u0932\u094b\u0939\u093f\u092f\u093e \u0905\u0938\u094d\u092a\u0924\u093e\u0932", "source": "OpenGovernmentData"}}, {"type": "way", "id": 289405078, "nodes": [2929536186, 2929536184, 12946711732, 2929536194, 12946711731, 2929536196, 2929536186], "tags": {"addr:district": "Central", "addr:full": "Minto Road, Mahavir Ranjeet Singh Marg,Delhi Gate", "addr:postcode": "110002", "addr:state": "Delhi", "amenity": "hospital", "barrier": "wall", "contact:phone": "1123235145", "description": "100-500 Bedded Hospital", "healthcare": "hospital", "name": "Guru Nanak Eye Hospital", "name:etymology:wikidata": "Q83322", "source": "OpenGovernmentData"}}]}